[
  {
    "name": "Quán Nhậu Tự Do 10 Nguyễn Văn Huyên – Quán nhậu sáng nhất quận Cầu Giấy",
    "address": "Quán Nhậu Tự Do 10 Nguyễn Văn Huyên – Quán nhậu sáng nhất quận Cầu Giấy",
    "phone": "*1986",
    "imageUrl": "https://storage.quannhautudo.com/data/thumb_800/Data/images/product/2023/05/202305131028374435.webp",
    "url": "https://quannhautudo.com/co-so/10-nguyen-van-huyen-2.htm",
    "capacity": "500 khách",
    "floors": "2 tầng",
    "openingHours": "9:00 AM - 11:30 PM",
    "imageFilename": "branch_1.jpg",
    "image": "branch_1.jpg"
  },
  {
    "name": "Quán Nhậu Tự Do Nguyễn Hữu Thọ – Tụ điểm ăn chơi TO và RỘNG nhất khu Linh Đàm",
    "address": "Quán Nhậu Tự Do Nguyễn Hữu Thọ – Tụ điểm ăn chơi TO và RỘNG nhất khu Linh Đàm",
    "phone": "*1986",
    "imageUrl": "https://storage.quannhautudo.com/data/thumb_800/Data/images/product/2023/08/202308041531543406.webp",
    "url": "https://quannhautudo.com/co-so/nguyen-huu-tho-linh-dam-10.htm",
    "capacity": "450 khách",
    "floors": "3 tầng",
    "openingHours": "9:00 AM - 11:30 PM",
    "imageFilename": "branch_2.jpg",
    "image": "branch_2.jpg"
  },
  {
    "name": "Quán Nhậu Tự Do 68 Khúc Thừa Dụ - Cầu Giấy",
    "address": "Quán Nhậu Tự Do 68 Khúc Thừa Dụ - Cầu Giấy",
    "phone": "*1986",
    "imageUrl": "https://storage.quannhautudo.com/data/thumb_800/Data/images/product/2023/06/202306281112051883.webp",
    "url": "https://quannhautudo.com/co-so/68-khuc-thua-du-11.htm",
    "capacity": "400 khách",
    "floors": "3 tầng",
    "openingHours": "9:00 AM - 11:30 PM",
    "imageFilename": "branch_3.jpg",
    "image": "branch_3.jpg"
  },
  {
    "name": "Quán Nhậu Tự Do 68 Láng Thượng – Điểm hẹn mới cho giới trẻ Hà Thành",
    "address": "Quán Nhậu Tự Do 68 Láng Thượng – Điểm hẹn mới cho giới trẻ Hà Thành",
    "phone": "*1986",
    "imageUrl": "https://storage.quannhautudo.com/data/thumb_800/Data/images/product/2023/10/202310241151262663.webp",
    "url": "https://quannhautudo.com/co-so/68-lang-thuong-12.htm",
    "capacity": "500 khách",
    "floors": "2 tầng",
    "openingHours": "9:00 AM - 11:30 PM",
    "imageFilename": "branch_4.jpg",
    "image": "branch_4.jpg"
  },
  {
    "name": "Quán Nhậu Tự Do 505 Minh Khai - Tụ điểm ăn chơi mới quận Hai Bà Trưng",
    "address": "Quán Nhậu Tự Do 505 Minh Khai - Tụ điểm ăn chơi mới quận Hai Bà Trưng",
    "phone": "*1986",
    "imageUrl": "https://storage.quannhautudo.com/data/thumb_800/Data/images/product/2023/11/202311031040319831.webp",
    "url": "https://quannhautudo.com/co-so/quan-nhau-tu-do-minh-khai-13.htm",
    "capacity": "800 khách",
    "floors": "2 tầng",
    "openingHours": "9:00 AM - 11:30 PM",
    "imageFilename": "branch_5.jpg",
    "image": "branch_5.jpg"
  },
  {
    "name": "Quán Nhậu Tự Do Mega Grand World",
    "address": "Quán Nhậu Tự Do Mega Grand World",
    "phone": "*1986",
    "imageUrl": "https://storage.quannhautudo.com/data/thumb_800/Data/images/product/2023/12/202312211210306226.webp",
    "url": "https://quannhautudo.com/co-so/quan-nhau-td-mega-grand-world-14.htm",
    "capacity": "800 khách",
    "floors": "4 tầng",
    "openingHours": "9:00 AM - 12:00 AM",
    "imageFilename": "branch_6.jpg",
    "image": "branch_6.jpg"
  },
  {
    "name": "Quán Nhậu Tự Do 201 Nguyễn Tuân - Quán nhậu phong cách mới tại Thanh Xuân",
    "address": "Quán Nhậu Tự Do 201 Nguyễn Tuân - Quán nhậu phong cách mới tại Thanh Xuân",
    "phone": "*1986",
    "imageUrl": "https://storage.quannhautudo.com/data/thumb_800/Data/images/product/2024/10/202410041831456635.webp",
    "url": "https://quannhautudo.com/co-so/201-nguyen-tuan-17.htm",
    "capacity": "500 khách",
    "floors": "5 tầng",
    "openingHours": "9:00 AM - 12:00 AM",
    "imageFilename": "branch_7.jpg",
    "image": "branch_7.jpg"
  },
  {
    "name": "Quán Nhậu Tự Do Geleximco An Khánh",
    "address": "Quán Nhậu Tự Do Geleximco An Khánh",
    "phone": "*1986",
    "imageUrl": "https://storage.quannhautudo.com/data/thumb_800/Data/images/product/2024/10/202410151215258437.webp",
    "url": "https://quannhautudo.com/co-so/quan-nhau-tu-do-geleximco-an-khanh-18.htm",
    "capacity": "300 khách",
    "floors": "3 tầng",
    "openingHours": "9:00 AM - 11:30 PM",
    "imageFilename": "branch_8.jpg",
    "image": "branch_8.jpg"
  },
  {
    "name": "Lẩu Bò Tự Do - Mega Grand World",
    "address": "Lẩu Bò Tự Do - Mega Grand World",
    "phone": "*1986",
    "imageUrl": "https://storage.quannhautudo.com/data/thumb_800/Data/images/product/2024/11/202411201635498606.webp",
    "url": "https://quannhautudo.com/co-so/lau-bo-tu-do-mega-grand-world-19.htm",
    "capacity": "200 khách",
    "floors": "4 tầng",
    "openingHours": "2:00 PM - 11:30 PM",
    "imageFilename": "branch_9.jpg",
    "image": "branch_9.jpg"
  },
  {
    "name": "Quán Nhậu Tự Do Hồng Tiến - Quán nhậu rộng hơn 2000m2 đổ bộ về Long Biên",
    "address": "Quán Nhậu Tự Do Hồng Tiến - Quán nhậu rộng hơn 2000m2 đổ bộ về Long Biên",
    "phone": "*1986",
    "imageUrl": "https://storage.quannhautudo.com/data/thumb_800/Data/images/product/2025/05/202505091111504516.webp",
    "url": "https://quannhautudo.com/co-so/quan-nhau-tu-do-hong-tien-long-bien-20.htm",
    "capacity": "800 khách",
    "floors": "2 tầng",
    "openingHours": "9:00 AM - 12:00 AM",
    "imageFilename": "branch_10.jpg",
    "image": "branch_10.jpg"
  },
  {
    "name": "Quán Nhậu Tự Do 08 Lê Đại Hành – Quán Nhậu Rooftop quận Hai Bà Trưng",
    "address": "Quán Nhậu Tự Do 08 Lê Đại Hành – Quán Nhậu Rooftop quận Hai Bà Trưng",
    "phone": "*1986",
    "imageUrl": "https://storage.quannhautudo.com/data/thumb_800/Data/images/product/2023/05/202305150958232992.webp",
    "url": "https://quannhautudo.com/co-so/so-08-le-dai-hanh-1.htm",
    "capacity": "350 khách",
    "floors": "2 tầng",
    "openingHours": "9:00 AM - 11:30 PM",
    "imageFilename": "branch_11.jpg",
    "image": "branch_11.jpg"
  },
  {
    "name": "Lẩu Bò Tự Do 58 Khúc Thừa Dụ – Quán lẩu ngon quận Cầu Giấy",
    "address": "Lẩu Bò Tự Do 58 Khúc Thừa Dụ – Quán lẩu ngon quận Cầu Giấy",
    "phone": "*1986",
    "imageUrl": "https://storage.quannhautudo.com/data/thumb_800/Data/images/product/2023/05/202305151622155711.webp",
    "url": "https://quannhautudo.com/co-so/lau-bo-td-58-khuc-thua-du-4.htm",
    "capacity": "250 khách",
    "floors": "2 tầng",
    "openingHours": "9:00 AM - 11:30 PM",
    "imageFilename": "branch_12.jpg",
    "image": "branch_12.jpg"
  },
  {
    "name": "75 Yên Lãng",
    "address": "75 Yên Lãng",
    "phone": "*1986",
    "imageUrl": "https://storage.quannhautudo.com/data/thumb_800/Data/images/product/2025/07/202507261604215045.webp",
    "url": "https://quannhautudo.com/co-so/75-yen-lang-5.htm",
    "capacity": "250 khách",
    "floors": "2 tầng",
    "openingHours": "9:00 AM - 11:30 PM",
    "imageFilename": "branch_13.jpg",
    "image": "branch_13.jpg"
  },
  {
    "name": "Lẩu Bò Tự Do 01 Trần Xuân Soạn – Quán lẩu ngon nức tiếng quận Hai Bà Trưng",
    "address": "Lẩu Bò Tự Do 01 Trần Xuân Soạn – Quán lẩu ngon nức tiếng quận Hai Bà Trưng",
    "phone": "*1986",
    "imageUrl": "https://storage.quannhautudo.com/data/thumb_800/Data/images/product/2023/05/2023051516353014.webp",
    "url": "https://quannhautudo.com/co-so/lau-bo-td-01-tran-xuan-soan-6.htm",
    "capacity": "250 khách",
    "floors": "2 tầng",
    "openingHours": "9:00 AM - 11:30 PM",
    "imageFilename": "branch_14.jpg",
    "image": "branch_14.jpg"
  },
  {
    "name": "Quán Nhậu Tự Do 02 Lê Đức Thọ quận Cầu Giấy – Quán nhậu hot nhất khu vực Mỹ Đình",
    "address": "Quán Nhậu Tự Do 02 Lê Đức Thọ quận Cầu Giấy – Quán nhậu hot nhất khu vực Mỹ Đình",
    "phone": "*1986",
    "imageUrl": "https://storage.quannhautudo.com/data/thumb_800/Data/images/product/2023/05/202305131501199004.webp",
    "url": "https://quannhautudo.com/co-so/02-le-duc-tho-7.htm",
    "capacity": "600 khách",
    "floors": "2 tầng",
    "openingHours": "9:00 AM - 11:30 PM",
    "imageFilename": "branch_15.jpg",
    "image": "branch_15.jpg"
  },
  {
    "name": "Quán Nhậu Tự Do 112 Nguyễn Văn Tuyết – Tụ điểm ăn chơi mới nổi trên phố ẩm thực",
    "address": "Quán Nhậu Tự Do 112 Nguyễn Văn Tuyết – Tụ điểm ăn chơi mới nổi trên phố ẩm thực",
    "phone": "*1986",
    "imageUrl": "https://storage.quannhautudo.com/data/thumb_800/Data/images/product/2023/05/202305291150125161.webp",
    "url": "https://quannhautudo.com/co-so/112-nguyen-van-tuyet-8.htm",
    "capacity": "350 khách",
    "floors": "2 tầng",
    "openingHours": "9:00 AM - 11:30 PM",
    "imageFilename": "branch_16.jpg",
    "image": "branch_16.jpg"
  },
  {
    "name": "Quán Nhậu Tự Do 67A Phó Đức Chính – “Chốn ăn chơi” mới của anh em quận Ba Đình",
    "address": "Quán Nhậu Tự Do 67A Phó Đức Chính – “Chốn ăn chơi” mới của anh em quận Ba Đình",
    "phone": "*1986",
    "imageUrl": "https://storage.quannhautudo.com/data/thumb_800/Data/images/product/2023/05/202305151520383372.webp",
    "url": "https://quannhautudo.com/co-so/67a-pho-duc-chinh-9.htm",
    "capacity": "400 khách",
    "floors": "2 tầng",
    "openingHours": "9:00 AM - 11:30 PM",
    "imageFilename": "branch_17.jpg",
    "image": "branch_17.jpg"
  },
  {
    "name": "Nướng Tự Do - 02 Lê Đức Thọ",
    "address": "Nướng Tự Do - 02 Lê Đức Thọ",
    "phone": "*1986",
    "imageUrl": "https://storage.quannhautudo.com/data/thumb_800/Data/images/product/2025/12/20251230142055076.webp",
    "url": "https://quannhautudo.com/co-so/nuong-tu-do-21.htm",
    "capacity": "300 khách",
    "floors": "1 tầng",
    "openingHours": "10:00 AM - 11:30 PM",
    "imageFilename": "branch_18.jpg",
    "image": "branch_18.jpg"
  }
]